[
  {
    "n": "Abbasiya Makhffar St",
    "co": "bec",
    "company": "BEC",
    "area": "Abbasiya",
    "gov": "Farwaniya",
    "type": "branch",
    "lat": 29.2592,
    "lng": 47.9323,
    "address": "Faisal Abdul Aziz Bldg, Jaleeb, St 17",
    "phone": "2228 0486",
    "hours": "8AM-9PM"
  },
  {
    "n": "Abbasiya Blk4 St10",
    "co": "bec",
    "company": "BEC",
    "area": "Abbasiya",
    "gov": "Farwaniya",
    "type": "branch",
    "lat": 29.256,
    "lng": 47.9342,
    "address": "Block 4, Street 10, Building 124",
    "phone": "2228 0496",
    "hours": "8AM-9PM"
  },
  {
    "n": "Abbasiya Blk4",
    "co": "bec",
    "company": "BEC",
    "area": "Abbasiya",
    "gov": "Farwaniya",
    "type": "branch",
    "lat": 29.2565,
    "lng": 47.9269,
    "address": "Block 4, Bldg 35, Khaled Uqab St",
    "phone": "22089036",
    "hours": "8AM-9PM"
  },
  {
    "n": "Abu Halifa",
    "co": "bec",
    "company": "BEC",
    "area": "Abu Halifa",
    "gov": "Ahmadi",
    "type": "branch",
    "lat": 29.126,
    "lng": 48.1255,
    "address": "Mudar Bin Nizar St, Al Raya Complex",
    "phone": "22089031",
    "hours": "8AM-9PM"
  },
  {
    "n": "Airport T4",
    "co": "bec",
    "company": "BEC",
    "area": "Airport",
    "gov": "Farwaniya",
    "type": "branch",
    "lat": 29.2526,
    "lng": 47.9614,
    "address": "Kuwait Intl Airport, Terminal 4",
    "phone": "22089052",
    "hours": "24 Hours"
  },
  {
    "n": "Airport T5",
    "co": "bec",
    "company": "BEC",
    "area": "Airport",
    "gov": "Farwaniya",
    "type": "branch",
    "lat": 29.2412,
    "lng": 47.9734,
    "address": "Jazeera Airways Terminal 5",
    "phone": "22089054",
    "hours": "24 Hours"
  },
  {
    "n": "Amghara",
    "co": "bec",
    "company": "BEC",
    "area": "Amghara",
    "gov": "Jahra",
    "type": "branch",
    "lat": 29.3209,
    "lng": 47.7518,
    "address": "Al-Jahra Street, Amghara Complex",
    "phone": "22280476",
    "hours": "8AM-9PM"
  },
  {
    "n": "Avenues",
    "co": "bec",
    "company": "BEC",
    "area": "Rai",
    "gov": "Farwaniya",
    "type": "branch",
    "lat": 29.3032,
    "lng": 47.9403,
    "address": "Phase 3, Al Mubarak Al Khadem Complex",
    "phone": "2228 0451",
    "hours": "8AM-9PM"
  },
  {
    "n": "Fahaheel Dabbous",
    "co": "bec",
    "company": "BEC",
    "area": "Fahaheel",
    "gov": "Ahmadi",
    "type": "branch",
    "lat": 29.0789,
    "lng": 48.1349,
    "address": "Mustafa Thunyian Al Ghanim Complex",
    "phone": "2228 0530",
    "hours": "8AM-9PM"
  },
  {
    "n": "Fahaheel Mecca St",
    "co": "bec",
    "company": "BEC",
    "area": "Fahaheel",
    "gov": "Ahmadi",
    "type": "branch",
    "lat": 29.0799,
    "lng": 48.1345,
    "address": "Qais Abdulla Al Ghannem Bldg, Mecca St",
    "phone": "2228 0484",
    "hours": "8AM-9PM"
  },
  {
    "n": "Fahaheel Grand",
    "co": "bec",
    "company": "BEC",
    "area": "Fahaheel",
    "gov": "Ahmadi",
    "type": "branch",
    "lat": 29.0791,
    "lng": 48.1331,
    "address": "Grand Hyper Mall, Mariyam Complex",
    "phone": "2208 9034",
    "hours": "8AM-9PM"
  },
  {
    "n": "Fahaheel Souk",
    "co": "bec",
    "company": "BEC",
    "area": "Fahaheel",
    "gov": "Ahmadi",
    "type": "branch",
    "lat": 29.0819,
    "lng": 48.126,
    "address": "Al Sidra Complex, Souk Sabah",
    "phone": "2228 0449",
    "hours": "8AM-9PM"
  },
  {
    "n": "Farwaniya Munawar",
    "co": "bec",
    "company": "BEC",
    "area": "Farwaniya",
    "gov": "Farwaniya",
    "type": "branch",
    "lat": 29.2717,
    "lng": 47.9674,
    "address": "Habib Al Munawar St, Fahad Al Annaz",
    "phone": "2228 0468",
    "hours": "8AM-9PM"
  },
  {
    "n": "Farwaniya Fadala",
    "co": "bec",
    "company": "BEC",
    "area": "Farwaniya",
    "gov": "Farwaniya",
    "type": "branch",
    "lat": 29.285,
    "lng": 47.9621,
    "address": "Al-Fadala Complex, Block 51, St 123",
    "phone": "2228 0494",
    "hours": "8AM-9PM"
  },
  {
    "n": "Farwaniya Blk4",
    "co": "bec",
    "company": "BEC",
    "area": "Farwaniya",
    "gov": "Farwaniya",
    "type": "branch",
    "lat": 29.278,
    "lng": 47.9542,
    "address": "Block 4, Street 104, Bldg 547",
    "phone": "22089040",
    "hours": "8AM-9PM"
  },
  {
    "n": "Farwaniya Magatheer",
    "co": "bec",
    "company": "BEC",
    "area": "Farwaniya",
    "gov": "Farwaniya",
    "type": "branch",
    "lat": 29.2796,
    "lng": 47.9617,
    "address": "Maghateer Commercial Centre",
    "phone": "22089043",
    "hours": "8AM-9PM"
  },
  {
    "n": "Farwaniya Metro",
    "co": "bec",
    "company": "BEC",
    "area": "Farwaniya",
    "gov": "Farwaniya",
    "type": "branch",
    "lat": 29.2736,
    "lng": 47.9642,
    "address": "Metro Plaza Cinema Complex",
    "phone": "2228 0478",
    "hours": "8AM-9PM"
  },
  {
    "n": "Fintas",
    "co": "bec",
    "company": "BEC",
    "area": "Fintas",
    "gov": "Ahmadi",
    "type": "branch",
    "lat": 29.1826,
    "lng": 48.1165,
    "address": "Al-Fintas Commercial Complex, Blk 1",
    "phone": "22280552",
    "hours": "8AM-9PM"
  },
  {
    "n": "Head Office Hajery",
    "co": "bec",
    "company": "BEC",
    "area": "Mirqab",
    "gov": "Asima",
    "type": "branch",
    "lat": 29.3676,
    "lng": 47.9762,
    "address": "Al-Hajery Bldg, Abdul Aziz Hamad St",
    "phone": "2228 0522",
    "hours": "8AM-9PM"
  },
  {
    "n": "Hassawi Blk1",
    "co": "bec",
    "company": "BEC",
    "area": "Jleeb",
    "gov": "Farwaniya",
    "type": "branch",
    "lat": 29.2627,
    "lng": 47.9235,
    "address": "Block 167, Jleeb Al Shuyookh Coop",
    "phone": "2228 0470",
    "hours": "8AM-9PM"
  },
  {
    "n": "Hassawi Jleeb",
    "co": "bec",
    "company": "BEC",
    "area": "Jleeb",
    "gov": "Farwaniya",
    "type": "branch",
    "lat": 29.2607,
    "lng": 47.9272,
    "address": "Area 2, Bldg 271, Hassawi Jleeb",
    "phone": "2228 0453",
    "hours": "8AM-9PM"
  },
  {
    "n": "Hassawi Blk3",
    "co": "bec",
    "company": "BEC",
    "area": "Jleeb",
    "gov": "Farwaniya",
    "type": "branch",
    "lat": 29.2646,
    "lng": 47.9139,
    "address": "Gharib Tijari Complex, Block 3",
    "phone": "2228 0452",
    "hours": "8AM-9PM"
  },
  {
    "n": "Hawally IBN Khaldun",
    "co": "bec",
    "company": "BEC",
    "area": "Hawally",
    "gov": "Hawally",
    "type": "branch",
    "lat": 29.3419,
    "lng": 48.0116,
    "address": "Ibn Khaldun St, Zaina Centre",
    "phone": "2228 0480",
    "hours": "8AM-9PM"
  },
  {
    "n": "Jahra Al Khair",
    "co": "bec",
    "company": "BEC",
    "area": "Jahra",
    "gov": "Jahra",
    "type": "branch",
    "lat": 29.3397,
    "lng": 47.6725,
    "address": "Al Khair Complex, Jahra",
    "phone": "2228 0498",
    "hours": "8AM-9PM"
  },
  {
    "n": "Jahra Alya",
    "co": "bec",
    "company": "BEC",
    "area": "Jahra",
    "gov": "Jahra",
    "type": "branch",
    "lat": 29.3545,
    "lng": 47.6701,
    "address": "Area 2, Alya Center, Ain Jalat St",
    "phone": "22089044",
    "hours": "8AM-9PM"
  },
  {
    "n": "Khaitan Awtad",
    "co": "bec",
    "company": "BEC",
    "area": "Khaitan",
    "gov": "Farwaniya",
    "type": "branch",
    "lat": 29.29,
    "lng": 47.9742,
    "address": "Awtad Mall, Shop 34-35",
    "phone": "22280562",
    "hours": "8AM-9PM"
  },
  {
    "n": "Khaitan Blk6",
    "co": "bec",
    "company": "BEC",
    "area": "Khaitan",
    "gov": "Farwaniya",
    "type": "branch",
    "lat": 29.2948,
    "lng": 47.9757,
    "address": "Block 6, Street 35, Bldg 2",
    "phone": "97226983",
    "hours": "8AM-9PM"
  },
  {
    "n": "Khaitan Abdullah",
    "co": "bec",
    "company": "BEC",
    "area": "Khaitan",
    "gov": "Farwaniya",
    "type": "branch",
    "lat": 29.2908,
    "lng": 47.9749,
    "address": "Ibn Zuhair St, Abdullah Complex",
    "phone": "22280458",
    "hours": "8AM-9PM"
  },
  {
    "n": "Khaitan St53",
    "co": "bec",
    "company": "BEC",
    "area": "Khaitan",
    "gov": "Farwaniya",
    "type": "branch",
    "lat": 29.2844,
    "lng": 47.9772,
    "address": "Block 6, Street 53, Bldg 14",
    "phone": "22280563",
    "hours": "8AM-9PM"
  },
  {
    "n": "Mahboula Complex",
    "co": "bec",
    "company": "BEC",
    "area": "Mahboula",
    "gov": "Ahmadi",
    "type": "branch",
    "lat": 29.142,
    "lng": 48.125,
    "address": "Bldg 204, Street 301, Mahboula",
    "phone": "2228 0490",
    "hours": "8AM-9PM"
  },
  {
    "n": "Mahboula Area2",
    "co": "bec",
    "company": "BEC",
    "area": "Mahboula",
    "gov": "Ahmadi",
    "type": "branch",
    "lat": 29.1584,
    "lng": 48.1158,
    "address": "Area 2A, Bldg 241, Mahboula",
    "phone": "2228 0445",
    "hours": "8AM-9PM"
  },
  {
    "n": "Mahboula KFH",
    "co": "bec",
    "company": "BEC",
    "area": "Mahboula",
    "gov": "Ahmadi",
    "type": "branch",
    "lat": 29.1463,
    "lng": 48.1161,
    "address": "Block 1, KFH Complex, Mahboula",
    "phone": "2228 0447",
    "hours": "8AM-9PM"
  },
  {
    "n": "Mahboula Blk2",
    "co": "bec",
    "company": "BEC",
    "area": "Mahboula",
    "gov": "Ahmadi",
    "type": "branch",
    "lat": 29.1498,
    "lng": 48.1223,
    "address": "Block 2, Bldg 205, Mahboula",
    "phone": "2228 0459",
    "hours": "8AM-9PM"
  },
  {
    "n": "Mahboula Blk4",
    "co": "bec",
    "company": "BEC",
    "area": "Mahboula",
    "gov": "Ahmadi",
    "type": "branch",
    "lat": 29.1546,
    "lng": 48.1209,
    "address": "Block 4, St 215, Bldg 126",
    "phone": "2208 9030",
    "hours": "8AM-9PM"
  },
  {
    "n": "Mahboula Ahlia",
    "co": "bec",
    "company": "BEC",
    "area": "Mahboula",
    "gov": "Ahmadi",
    "type": "branch",
    "lat": 29.1457,
    "lng": 48.1189,
    "address": "Block 1A, Plot 34, St 135",
    "phone": "2228 0461",
    "hours": "8AM-9PM"
  },
  {
    "n": "Mahboula Grand",
    "co": "bec",
    "company": "BEC",
    "area": "Mahboula",
    "gov": "Ahmadi",
    "type": "branch",
    "lat": 29.1567,
    "lng": 48.119,
    "address": "Block 2, St 206, Grand Hyper",
    "phone": "22089046",
    "hours": "8AM-9PM"
  },
  {
    "n": "Mahboula Mariam",
    "co": "bec",
    "company": "BEC",
    "area": "Mahboula",
    "gov": "Ahmadi",
    "type": "branch",
    "lat": 29.1492,
    "lng": 48.1172,
    "address": "Block 1, St 142, Bldg 254",
    "phone": "22089048",
    "hours": "8AM-9PM"
  },
  {
    "n": "Mangaf",
    "co": "bec",
    "company": "BEC",
    "area": "Mangaf",
    "gov": "Ahmadi",
    "type": "branch",
    "lat": 29.1015,
    "lng": 48.1256,
    "address": "Al Sahel Complex, Block 54",
    "phone": "2228 0488",
    "hours": "8AM-9PM"
  },
  {
    "n": "Mangaf St27",
    "co": "bec",
    "company": "BEC",
    "area": "Mangaf",
    "gov": "Ahmadi",
    "type": "branch",
    "lat": 29.1007,
    "lng": 48.1331,
    "address": "Street 27, Bldg 11, Block 54",
    "phone": "22280448",
    "hours": "8AM-9PM"
  },
  {
    "n": "Mangaf Area4",
    "co": "bec",
    "company": "BEC",
    "area": "Mangaf",
    "gov": "Ahmadi",
    "type": "branch",
    "lat": 29.0946,
    "lng": 48.1328,
    "address": "Area 4, Street 24, Bldg 142",
    "phone": "22280489",
    "hours": "8AM-9PM"
  },
  {
    "n": "Mubarakiya",
    "co": "bec",
    "company": "BEC",
    "area": "Mubarakiya",
    "gov": "Asima",
    "type": "branch",
    "lat": 29.3751,
    "lng": 47.9746,
    "address": "Heritage Market, Exchange Area 4",
    "phone": "2228 0474",
    "hours": "8AM-9PM"
  },
  {
    "n": "Murgab Roundabout",
    "co": "bec",
    "company": "BEC",
    "area": "Mirqab",
    "gov": "Asima",
    "type": "branch",
    "lat": 29.3688,
    "lng": 47.9785,
    "address": "Block 1, Bldg 1, Shop 4-6, Murgab",
    "phone": "22089039",
    "hours": "8AM-9PM"
  },
  {
    "n": "Muthahida UTC",
    "co": "bec",
    "company": "BEC",
    "area": "Mirqab",
    "gov": "Asima",
    "type": "branch",
    "lat": 29.3617,
    "lng": 47.9658,
    "address": "UTC Building, Fahad Al Salem St",
    "phone": "2228 0564",
    "hours": "8AM-9PM"
  },
  {
    "n": "Riggae",
    "co": "bec",
    "company": "BEC",
    "area": "Riggae",
    "gov": "Farwaniya",
    "type": "branch",
    "lat": 29.3059,
    "lng": 47.914,
    "address": "Block 2, St 2, Bldg 38",
    "phone": "2228 0492",
    "hours": "8AM-9PM"
  },
  {
    "n": "Salmiya Area10",
    "co": "bec",
    "company": "BEC",
    "area": "Salmiya",
    "gov": "Hawally",
    "type": "branch",
    "lat": 29.3319,
    "lng": 48.0611,
    "address": "Bldg 66, Area 10, Al Mugaira St",
    "phone": "2228 0551",
    "hours": "8AM-9PM"
  },
  {
    "n": "Salmiya Blk10",
    "co": "bec",
    "company": "BEC",
    "area": "Salmiya",
    "gov": "Hawally",
    "type": "branch",
    "lat": 29.3238,
    "lng": 48.0607,
    "address": "Suleiman Adsani St, Bldg 35, Blk 10",
    "phone": "22280561",
    "hours": "8AM-9PM"
  },
  {
    "n": "Salmiya Naser",
    "co": "bec",
    "company": "BEC",
    "area": "Salmiya",
    "gov": "Hawally",
    "type": "branch",
    "lat": 29.3292,
    "lng": 48.054,
    "address": "Bldg 18, Naser Al Bader St, Blk 12",
    "phone": "22280456",
    "hours": "8AM-9PM"
  },
  {
    "n": "Salmiya Area12",
    "co": "bec",
    "company": "BEC",
    "area": "Salmiya",
    "gov": "Hawally",
    "type": "branch",
    "lat": 29.3205,
    "lng": 48.0581,
    "address": "Bldg 21, St 5, Block 12",
    "phone": "22280463",
    "hours": "8AM-9PM"
  },
  {
    "n": "Shadadiya",
    "co": "bec",
    "company": "BEC",
    "area": "Shadadiya",
    "gov": "Asima",
    "type": "branch",
    "lat": 29.1792,
    "lng": 47.8396,
    "address": "Al Shahdadiya Labor Camp",
    "phone": "22280466",
    "hours": "8AM-9PM"
  },
  {
    "n": "Shuwaikh",
    "co": "bec",
    "company": "BEC",
    "area": "Shuwaikh",
    "gov": "Asima",
    "type": "branch",
    "lat": 29.3298,
    "lng": 47.9448,
    "address": "Shuwaikh Industrial, Blk 1, Canada Dry St",
    "phone": "22280477",
    "hours": "8AM-9PM"
  },
  {
    "n": "Watiya",
    "co": "bec",
    "company": "BEC",
    "area": "Mirqab",
    "gov": "Asima",
    "type": "branch",
    "lat": 29.3625,
    "lng": 47.9627,
    "address": "Watiya Complex, Fahad Al Salem St",
    "phone": "2228 0555",
    "hours": "8AM-9PM"
  },
  {
    "n": "Hawalli Tunis-Sadik",
    "co": "muzaini",
    "company": "Al Muzaini",
    "area": "Hawalli",
    "gov": "Hawally",
    "type": "branch",
    "lat": 29.342,
    "lng": 48.028,
    "address": "Tunis St, at Sadik roundabout",
    "phone": "1888818",
    "hours": "8AM-9:30PM"
  },
  {
    "n": "Hawally Abraj Complex",
    "co": "muzaini",
    "company": "Al Muzaini",
    "area": "Hawalli",
    "gov": "Hawally",
    "type": "branch",
    "lat": 29.335,
    "lng": 48.012,
    "address": "Al Abraj Complex B Tower, Blk 178",
    "phone": "1888818",
    "hours": "8AM-9:30PM"
  },
  {
    "n": "Salwa Blk2",
    "co": "muzaini",
    "company": "Al Muzaini",
    "area": "Salwa",
    "gov": "Hawally",
    "type": "branch",
    "lat": 29.305,
    "lng": 48.085,
    "address": "Block 2, Bldg 315, Shop 4",
    "phone": "1888818",
    "hours": "8AM-9PM"
  },
  {
    "n": "Hawalli Muthana",
    "co": "muzaini",
    "company": "Al Muzaini",
    "area": "Hawalli",
    "gov": "Hawally",
    "type": "branch",
    "lat": 29.336,
    "lng": 48.03,
    "address": "Al Muthana St, Block 6",
    "phone": "1888818",
    "hours": "8AM-9:30PM"
  },
  {
    "n": "Hawalli Sharhabeel",
    "co": "muzaini",
    "company": "Al Muzaini",
    "area": "Hawalli",
    "gov": "Hawally",
    "type": "branch",
    "lat": 29.328,
    "lng": 48.025,
    "address": "Sharhabeel Bin Hassnah St, Block 10",
    "phone": "1888818",
    "hours": "8AM-9:30PM"
  },
  {
    "n": "Zahraa 360 Mall",
    "co": "muzaini",
    "company": "Al Muzaini",
    "area": "Zahraa",
    "gov": "Hawally",
    "type": "branch",
    "lat": 29.3,
    "lng": 48.045,
    "address": "360 Kuwait Mall, Opposite Carrefour",
    "phone": "1888818",
    "hours": "8AM-10PM"
  },
  {
    "n": "Jabriya Blk3B",
    "co": "muzaini",
    "company": "Al Muzaini",
    "area": "Jabriya",
    "gov": "Hawally",
    "type": "branch",
    "lat": 29.317,
    "lng": 48.05,
    "address": "Block 3B, St 7, Bldg 27",
    "phone": "1888818",
    "hours": "8AM-9PM"
  },
  {
    "n": "Maidan Hawally Blk11",
    "co": "muzaini",
    "company": "Al Muzaini",
    "area": "Maidan Hawally",
    "gov": "Hawally",
    "type": "branch",
    "lat": 29.329,
    "lng": 48.038,
    "address": "Block 11, Mousa Al Abdulrazzaq St",
    "phone": "1888818",
    "hours": "8AM-9:30PM"
  },
  {
    "n": "Hawalli Qutaiba",
    "co": "muzaini",
    "company": "Al Muzaini",
    "area": "Hawalli",
    "gov": "Hawally",
    "type": "branch",
    "lat": 29.339,
    "lng": 48.02,
    "address": "Qutaiba St, Opposite Music School",
    "phone": "1888818",
    "hours": "8AM-9:30PM"
  },
  {
    "n": "Salmiya Khansaa",
    "co": "muzaini",
    "company": "Al Muzaini",
    "area": "Salmiya",
    "gov": "Hawally",
    "type": "branch",
    "lat": 29.331,
    "lng": 48.07,
    "address": "Al Khansaa St, Salmiya",
    "phone": "1888818",
    "hours": "8AM-9:30PM"
  },
  {
    "n": "Salmiya Bahrain Mall",
    "co": "muzaini",
    "company": "Al Muzaini",
    "area": "Salmiya",
    "gov": "Hawally",
    "type": "branch",
    "lat": 29.336,
    "lng": 48.062,
    "address": "Block 5, Bahrain St, Inside Mall",
    "phone": "1888818",
    "hours": "8AM-9:30PM"
  },
  {
    "n": "Hiteen Mall",
    "co": "muzaini",
    "company": "Al Muzaini",
    "area": "Hiteen",
    "gov": "Hawally",
    "type": "branch",
    "lat": 29.31,
    "lng": 48.048,
    "address": "Hiteen, Block 4, Inside Mall",
    "phone": "1888818",
    "hours": "8AM-9:30PM"
  },
  {
    "n": "Maidan Hawally St14",
    "co": "muzaini",
    "company": "Al Muzaini",
    "area": "Maidan Hawally",
    "gov": "Hawally",
    "type": "branch",
    "lat": 29.327,
    "lng": 48.04,
    "address": "Block 11, St 14, Behind Amer Intl School",
    "phone": "1888818",
    "hours": "8AM-9:30PM"
  },
  {
    "n": "Salmiya Blk9 Barayeh",
    "co": "muzaini",
    "company": "Al Muzaini",
    "area": "Salmiya",
    "gov": "Hawally",
    "type": "branch",
    "lat": 29.335,
    "lng": 48.076,
    "address": "Block 9, Barayeh Al Salem",
    "phone": "1888818",
    "hours": "8AM-10PM"
  },
  {
    "n": "Salmiya Blk6 Bahrain",
    "co": "muzaini",
    "company": "Al Muzaini",
    "area": "Salmiya",
    "gov": "Hawally",
    "type": "branch",
    "lat": 29.332,
    "lng": 48.068,
    "address": "Block 6, Bahrain St, Opp Al Sayad Medical",
    "phone": "1888818",
    "hours": "8AM-9PM"
  },
  {
    "n": "Hawalli Tunis Blk7",
    "co": "muzaini",
    "company": "Al Muzaini",
    "area": "Hawalli",
    "gov": "Hawally",
    "type": "branch",
    "lat": 29.338,
    "lng": 48.019,
    "address": "Tunis St, Block 7, Opp Al Jeel Al Jadid",
    "phone": "1888818",
    "hours": "8AM-9:30PM"
  },
  {
    "n": "Salmiya Blk9 Xcite",
    "co": "muzaini",
    "company": "Al Muzaini",
    "area": "Salmiya",
    "gov": "Hawally",
    "type": "branch",
    "lat": 29.334,
    "lng": 48.072,
    "address": "Block 9, Bldg 22A1, Next to Xcite",
    "phone": "1888818",
    "hours": "8AM-10PM"
  },
  {
    "n": "Salmiya Salem Mubarak",
    "co": "muzaini",
    "company": "Al Muzaini",
    "area": "Salmiya",
    "gov": "Hawally",
    "type": "branch",
    "lat": 29.336,
    "lng": 48.065,
    "address": "Salem Al Mubarak St, Al Wataniya Complex",
    "phone": "1888818",
    "hours": "8AM-9PM"
  },
  {
    "n": "Maidan Hawally Haroon",
    "co": "muzaini",
    "company": "Al Muzaini",
    "area": "Maidan Hawally",
    "gov": "Hawally",
    "type": "branch",
    "lat": 29.328,
    "lng": 48.036,
    "address": "Block 11, Haroon Al Rasheed St",
    "phone": "1888818",
    "hours": "8AM-9:30PM"
  },
  {
    "n": "Hawally Ibn Khaldoun",
    "co": "muzaini",
    "company": "Al Muzaini",
    "area": "Hawally",
    "gov": "Hawally",
    "type": "branch",
    "lat": 29.34,
    "lng": 48.011,
    "address": "Block 2, Ibn Khaldoun St, Opp McDonalds",
    "phone": "1888818",
    "hours": "8AM-9:30PM"
  },
  {
    "n": "Salwa Blk8",
    "co": "muzaini",
    "company": "Al Muzaini",
    "area": "Salwa",
    "gov": "Hawally",
    "type": "branch",
    "lat": 29.3,
    "lng": 48.078,
    "address": "Block 8, Mubarak Commercial Complex",
    "phone": "1888818",
    "hours": "8AM-9PM"
  },
  {
    "n": "Shaab Bahri",
    "co": "muzaini",
    "company": "Al Muzaini",
    "area": "Shaab",
    "gov": "Hawally",
    "type": "branch",
    "lat": 29.35,
    "lng": 48.085,
    "address": "Block 8, Al Kandi St",
    "phone": "1888818",
    "hours": "8AM-9PM"
  },
  {
    "n": "Salmiya Blk10 Sabaa",
    "co": "muzaini",
    "company": "Al Muzaini",
    "area": "Salmiya",
    "gov": "Hawally",
    "type": "branch",
    "lat": 29.327,
    "lng": 48.057,
    "address": "Block 10, Sabaa St, Opp Al Zein Mosque",
    "phone": "1888818",
    "hours": "8AM-9:30PM"
  },
  {
    "n": "Salmiya Yousef Bader",
    "co": "muzaini",
    "company": "Al Muzaini",
    "area": "Salmiya",
    "gov": "Hawally",
    "type": "branch",
    "lat": 29.326,
    "lng": 48.059,
    "address": "Block 10, Yousef Al Bader St",
    "phone": "1888818",
    "hours": "8AM-9:30PM"
  },
  {
    "n": "Salmiya Blk10 Amman",
    "co": "muzaini",
    "company": "Al Muzaini",
    "area": "Salmiya",
    "gov": "Hawally",
    "type": "branch",
    "lat": 29.325,
    "lng": 48.056,
    "address": "Block 10, Amman St, Sahoud Complex",
    "phone": "1888818",
    "hours": "8AM-9:30PM"
  },
  {
    "n": "Hawalli Abdullah Othman",
    "co": "muzaini",
    "company": "Al Muzaini",
    "area": "Hawalli",
    "gov": "Hawally",
    "type": "branch",
    "lat": 29.341,
    "lng": 48.014,
    "address": "Abdullha Al Othman St, Blk 2, Adasani",
    "phone": "1888818",
    "hours": "8AM-9:30PM"
  },
  {
    "n": "Hawalli Tunis Park",
    "co": "muzaini",
    "company": "Al Muzaini",
    "area": "Hawalli",
    "gov": "Hawally",
    "type": "branch",
    "lat": 29.343,
    "lng": 48.023,
    "address": "Tunis St, Near Hawally Park",
    "phone": "1888818",
    "hours": "8AM-9:30PM"
  },
  {
    "n": "Salmiya Blk12 Mughira",
    "co": "muzaini",
    "company": "Al Muzaini",
    "area": "Salmiya",
    "gov": "Hawally",
    "type": "branch",
    "lat": 29.33,
    "lng": 48.073,
    "address": "Block 12, Al Mughira Bin Shu'ba St",
    "phone": "1888818",
    "hours": "8AM-10PM"
  },
  {
    "n": "Jleeb Abassiya Blk4",
    "co": "muzaini",
    "company": "Al Muzaini",
    "area": "Jleeb",
    "gov": "Farwaniya",
    "type": "branch",
    "lat": 29.257,
    "lng": 47.926,
    "address": "Abassiya, Block 4, St 5",
    "phone": "1888818",
    "hours": "8AM-9PM"
  },
  {
    "n": "Khaitan Blk6 St59",
    "co": "muzaini",
    "company": "Al Muzaini",
    "area": "Khaitan",
    "gov": "Farwaniya",
    "type": "branch",
    "lat": 29.291,
    "lng": 47.976,
    "address": "Block 6, St 59, Bader Naser Al Jaian",
    "phone": "1888818",
    "hours": "8AM-9:30PM"
  },
  {
    "n": "Farwaniya Blk2 St120",
    "co": "muzaini",
    "company": "Al Muzaini",
    "area": "Farwaniya",
    "gov": "Farwaniya",
    "type": "branch",
    "lat": 29.2806,
    "lng": 47.9519,
    "address": "Block 2, Street 120, Bldg 1101",
    "phone": "1888818",
    "hours": "8AM-9:30PM"
  },
  {
    "n": "Farwaniya Blk1 St90",
    "co": "muzaini",
    "company": "Al Muzaini",
    "area": "Farwaniya",
    "gov": "Farwaniya",
    "type": "branch",
    "lat": 29.2886,
    "lng": 47.9605,
    "address": "Block 1, Street 90, Bldg 191",
    "phone": "1888818",
    "hours": "8AM-9:30PM"
  },
  {
    "n": "Jleeb Shuwaikh Blk1",
    "co": "muzaini",
    "company": "Al Muzaini",
    "area": "Jleeb",
    "gov": "Farwaniya",
    "type": "branch",
    "lat": 29.264,
    "lng": 47.918,
    "address": "Block 1, Bldg 830, Khaled Eqab St",
    "phone": "1888818",
    "hours": "8AM-10PM"
  },
  {
    "n": "Khaitan Blk4 Zaid",
    "co": "muzaini",
    "company": "Al Muzaini",
    "area": "Khaitan",
    "gov": "Farwaniya",
    "type": "branch",
    "lat": 29.298,
    "lng": 47.985,
    "address": "Block 4, Bldg 142, Zaid Al Khail St",
    "phone": "1888818",
    "hours": "8AM-9PM"
  },
  {
    "n": "Airport Departure",
    "co": "muzaini",
    "company": "Al Muzaini",
    "area": "Airport",
    "gov": "Farwaniya",
    "type": "branch",
    "lat": 29.2414,
    "lng": 47.9607,
    "address": "Kuwait Intl Airport, Departure Hall",
    "phone": "1888818",
    "hours": "24 Hours"
  },
  {
    "n": "Airport Jazeera",
    "co": "muzaini",
    "company": "Al Muzaini",
    "area": "Airport",
    "gov": "Farwaniya",
    "type": "branch",
    "lat": 29.2412,
    "lng": 47.9734,
    "address": "Al Jazeera Airport Building",
    "phone": "1888818",
    "hours": "24 Hours"
  },
  {
    "n": "Airport Arrival",
    "co": "muzaini",
    "company": "Al Muzaini",
    "area": "Airport",
    "gov": "Farwaniya",
    "type": "branch",
    "lat": 29.2526,
    "lng": 47.9614,
    "address": "Kuwait Intl Airport, Arrival Hall",
    "phone": "1888818",
    "hours": "24 Hours"
  },
  {
    "n": "Farwaniya Blk5 St119",
    "co": "muzaini",
    "company": "Al Muzaini",
    "area": "Farwaniya",
    "gov": "Farwaniya",
    "type": "branch",
    "lat": 29.2727,
    "lng": 47.955,
    "address": "Block 5, St 119, Near Mosque",
    "phone": "1888818",
    "hours": "8AM-9PM"
  },
  {
    "n": "Riggai Blk2",
    "co": "muzaini",
    "company": "Al Muzaini",
    "area": "Riggae",
    "gov": "Farwaniya",
    "type": "branch",
    "lat": 29.306,
    "lng": 47.922,
    "address": "Block 2, Behind Mosque",
    "phone": "1888818",
    "hours": "8AM-9:30PM"
  },
  {
    "n": "Farwaniya Blk1 Nesto",
    "co": "muzaini",
    "company": "Al Muzaini",
    "area": "Farwaniya",
    "gov": "Farwaniya",
    "type": "branch",
    "lat": 29.2845,
    "lng": 47.9609,
    "address": "Block 1, Opposite Nesto Market",
    "phone": "1888818",
    "hours": "8AM-10PM"
  },
  {
    "n": "Khaitan Blk9 Zainah",
    "co": "muzaini",
    "company": "Al Muzaini",
    "area": "Khaitan",
    "gov": "Farwaniya",
    "type": "branch",
    "lat": 29.291,
    "lng": 47.978,
    "address": "Block 9, St 31, Zainah Complex",
    "phone": "1888818",
    "hours": "8AM-9:30PM"
  },
  {
    "n": "Farwaniya Blk6 Zain",
    "co": "muzaini",
    "company": "Al Muzaini",
    "area": "Farwaniya",
    "gov": "Farwaniya",
    "type": "branch",
    "lat": 29.276,
    "lng": 47.968,
    "address": "Block 6, Opposite Zain Market",
    "phone": "1888818",
    "hours": "8AM-9PM"
  },
  {
    "n": "Ardhiya Blk1",
    "co": "muzaini",
    "company": "Al Muzaini",
    "area": "Ardhiya",
    "gov": "Farwaniya",
    "type": "branch",
    "lat": 29.305,
    "lng": 47.938,
    "address": "Block 1, Square Park Complex",
    "phone": "1888818",
    "hours": "8AM-9PM"
  },
  {
    "n": "Jleeb Blk4 Police",
    "co": "muzaini",
    "company": "Al Muzaini",
    "area": "Jleeb",
    "gov": "Farwaniya",
    "type": "branch",
    "lat": 29.257,
    "lng": 47.937,
    "address": "Block 4, St 3, Police Station St",
    "phone": "1888818",
    "hours": "8AM-9:30PM"
  },
  {
    "n": "Farwaniya Blk4 Habib",
    "co": "muzaini",
    "company": "Al Muzaini",
    "area": "Farwaniya",
    "gov": "Farwaniya",
    "type": "branch",
    "lat": 29.2733,
    "lng": 47.9644,
    "address": "Block 4, St 102, Habib Munawer",
    "phone": "1888818",
    "hours": "8AM-9:30PM"
  },
  {
    "n": "Khaitan Blk6 St62",
    "co": "muzaini",
    "company": "Al Muzaini",
    "area": "Khaitan",
    "gov": "Farwaniya",
    "type": "branch",
    "lat": 29.294,
    "lng": 47.974,
    "address": "Block 6, St 62",
    "phone": "1888818",
    "hours": "8AM-9:30PM"
  },
  {
    "n": "Jleeb Hassawi Blk3",
    "co": "muzaini",
    "company": "Al Muzaini",
    "area": "Jleeb",
    "gov": "Farwaniya",
    "type": "branch",
    "lat": 29.2646,
    "lng": 47.927,
    "address": "Hassawi, Block 3, St 163",
    "phone": "1888818",
    "hours": "8AM-9:30PM"
  },
  {
    "n": "Andalus Blk6",
    "co": "muzaini",
    "company": "Al Muzaini",
    "area": "Andalus",
    "gov": "Farwaniya",
    "type": "branch",
    "lat": 29.265,
    "lng": 47.95,
    "address": "Block 6, 4 St, Bldg 237",
    "phone": "1888818",
    "hours": "8AM-9PM"
  },
  {
    "n": "Jleeb Abassiya Blk5",
    "co": "muzaini",
    "company": "Al Muzaini",
    "area": "Jleeb",
    "gov": "Farwaniya",
    "type": "branch",
    "lat": 29.258,
    "lng": 47.928,
    "address": "Abassiya, Block 5, Street 55",
    "phone": "1888818",
    "hours": "8AM-9:30PM"
  },
  {
    "n": "Rai Avenues First",
    "co": "muzaini",
    "company": "Al Muzaini",
    "area": "Rai",
    "gov": "Farwaniya",
    "type": "branch",
    "lat": 29.3032,
    "lng": 47.9403,
    "address": "The Avenues, First Avenue, Opp Carrefour",
    "phone": "1888818",
    "hours": "9AM-12AM"
  },
  {
    "n": "Khaitan Blk7 Sharqiya",
    "co": "muzaini",
    "company": "Al Muzaini",
    "area": "Khaitan",
    "gov": "Farwaniya",
    "type": "branch",
    "lat": 29.293,
    "lng": 47.97,
    "address": "Block 7, Sharqiya Mall",
    "phone": "1888818",
    "hours": "8AM-9:30PM"
  },
  {
    "n": "Farwaniya St124",
    "co": "muzaini",
    "company": "Al Muzaini",
    "area": "Farwaniya",
    "gov": "Farwaniya",
    "type": "branch",
    "lat": 29.275,
    "lng": 47.96,
    "address": "St 124, Opposite Al Baidan Mosque",
    "phone": "1888818",
    "hours": "8AM-9PM"
  },
  {
    "n": "Farwaniya Blk3 Mughateer",
    "co": "muzaini",
    "company": "Al Muzaini",
    "area": "Farwaniya",
    "gov": "Farwaniya",
    "type": "branch",
    "lat": 29.2796,
    "lng": 47.9617,
    "address": "Block 3, Mughateer Complex",
    "phone": "1888818",
    "hours": "8AM-10PM"
  },
  {
    "n": "Khaitan Sama Mall",
    "co": "muzaini",
    "company": "Al Muzaini",
    "area": "Khaitan",
    "gov": "Farwaniya",
    "type": "branch",
    "lat": 29.292,
    "lng": 47.976,
    "address": "Sama Khaitan Mall, Ground Floor",
    "phone": "1888818",
    "hours": "8AM-10PM"
  },
  {
    "n": "Farwaniya Blk4 Duwailah",
    "co": "muzaini",
    "company": "Al Muzaini",
    "area": "Farwaniya",
    "gov": "Farwaniya",
    "type": "branch",
    "lat": 29.2784,
    "lng": 47.9545,
    "address": "Block 4, Al Duwailah St",
    "phone": "1888818",
    "hours": "8AM-9:30PM"
  },
  {
    "n": "Jleeb Blk1 CoOp",
    "co": "muzaini",
    "company": "Al Muzaini",
    "area": "Jleeb",
    "gov": "Farwaniya",
    "type": "branch",
    "lat": 29.26,
    "lng": 47.932,
    "address": "Block 1, Near Co-Operative",
    "phone": "1888818",
    "hours": "8AM-9:30PM"
  },
  {
    "n": "Sabah Nasser",
    "co": "muzaini",
    "company": "Al Muzaini",
    "area": "Farwaniya",
    "gov": "Farwaniya",
    "type": "branch",
    "lat": 29.272,
    "lng": 47.986,
    "address": "Sabah Al Nasser, Block 1",
    "phone": "1888818",
    "hours": "8AM-9:30PM"
  },
  {
    "n": "Andalus Blk11",
    "co": "muzaini",
    "company": "Al Muzaini",
    "area": "Andalus",
    "gov": "Farwaniya",
    "type": "branch",
    "lat": 29.266,
    "lng": 47.948,
    "address": "Block 11, St 101, Inside Co-Operative",
    "phone": "1888818",
    "hours": "8AM-9:30PM"
  },
  {
    "n": "Mangaf Blk4 KFC",
    "co": "muzaini",
    "company": "Al Muzaini",
    "area": "Mangaf",
    "gov": "Ahmadi",
    "type": "branch",
    "lat": 29.104,
    "lng": 48.129,
    "address": "Block 4, St 27, Opposite KFC",
    "phone": "1888818",
    "hours": "8AM-9PM"
  },
  {
    "n": "Mahboula Blk3 Sarafat",
    "co": "muzaini",
    "company": "Al Muzaini",
    "area": "Mahboula",
    "gov": "Ahmadi",
    "type": "branch",
    "lat": 29.155,
    "lng": 48.115,
    "address": "Block 3, Al Sarafat St 301",
    "phone": "1888818",
    "hours": "8AM-9:30PM"
  },
  {
    "n": "Fahaheel Al Kout",
    "co": "muzaini",
    "company": "Al Muzaini",
    "area": "Fahaheel",
    "gov": "Ahmadi",
    "type": "branch",
    "lat": 29.083,
    "lng": 48.137,
    "address": "Al Kout Mall, Opp Sultan Center",
    "phone": "1888818",
    "hours": "8AM-10PM"
  },
  {
    "n": "Al Fintas Blk1",
    "co": "muzaini",
    "company": "Al Muzaini",
    "area": "Fintas",
    "gov": "Ahmadi",
    "type": "branch",
    "lat": 29.18,
    "lng": 48.1165,
    "address": "Block 1, St 1, Ambassador Complex",
    "phone": "1888818",
    "hours": "8AM-9:30PM"
  },
  {
    "n": "Fahaheel Blk8 Souq",
    "co": "muzaini",
    "company": "Al Muzaini",
    "area": "Fahaheel",
    "gov": "Ahmadi",
    "type": "branch",
    "lat": 29.08,
    "lng": 48.13,
    "address": "Block 8, St 37, Souq Al Sabah",
    "phone": "1888818",
    "hours": "8AM-10PM"
  },
  {
    "n": "Riqqa CoOp",
    "co": "muzaini",
    "company": "Al Muzaini",
    "area": "Riqqa",
    "gov": "Ahmadi",
    "type": "branch",
    "lat": 29.098,
    "lng": 48.134,
    "address": "Block 5, St 5, Inside Co-Op Family Ctr",
    "phone": "1888818",
    "hours": "8AM-9:30PM"
  },
  {
    "n": "Sabah Ahmad New City",
    "co": "muzaini",
    "company": "Al Muzaini",
    "area": "Sabah Al Ahmad",
    "gov": "Ahmadi",
    "type": "branch",
    "lat": 29.06,
    "lng": 48.055,
    "address": "Block 6, Inside Mall",
    "phone": "1888818",
    "hours": "8AM-9:30PM"
  },
  {
    "n": "Mangaf Blk4 St14",
    "co": "muzaini",
    "company": "Al Muzaini",
    "area": "Mangaf",
    "gov": "Ahmadi",
    "type": "branch",
    "lat": 29.102,
    "lng": 48.131,
    "address": "Block 4, St 14, Behind Sultan Center",
    "phone": "1888818",
    "hours": "8AM-10PM"
  },
  {
    "n": "Ahmadi Blk9",
    "co": "muzaini",
    "company": "Al Muzaini",
    "area": "Ahmadi",
    "gov": "Ahmadi",
    "type": "branch",
    "lat": 29.15,
    "lng": 48.08,
    "address": "Block 9, St 202",
    "phone": "1888818",
    "hours": "8AM-9PM"
  },
  {
    "n": "Egaila Blk5",
    "co": "muzaini",
    "company": "Al Muzaini",
    "area": "Egaila",
    "gov": "Ahmadi",
    "type": "branch",
    "lat": 29.09,
    "lng": 48.095,
    "address": "Block 5, St 250, Al Nokhatha Mall",
    "phone": "1888818",
    "hours": "8AM-9PM"
  },
  {
    "n": "Mahboula Blk1 Khaleejia",
    "co": "muzaini",
    "company": "Al Muzaini",
    "area": "Mahboula",
    "gov": "Ahmadi",
    "type": "branch",
    "lat": 29.145,
    "lng": 48.12,
    "address": "Block 1, St 10, Al Khaleejia Hotel",
    "phone": "1888818",
    "hours": "8AM-9PM"
  },
  {
    "n": "Fahaheel Blk7 Maryam",
    "co": "muzaini",
    "company": "Al Muzaini",
    "area": "Fahaheel",
    "gov": "Ahmadi",
    "type": "branch",
    "lat": 29.081,
    "lng": 48.131,
    "address": "Block 7, 66 St, Maryam Complex",
    "phone": "1888818",
    "hours": "8AM-10PM"
  },
  {
    "n": "Mahboula Blk2A",
    "co": "muzaini",
    "company": "Al Muzaini",
    "area": "Mahboula",
    "gov": "Ahmadi",
    "type": "branch",
    "lat": 29.152,
    "lng": 48.118,
    "address": "Block 2A, St 114, Opp Mariam Mosque",
    "phone": "1888818",
    "hours": "8AM-9:30PM"
  },
  {
    "n": "Fahaheel Blk7 Mekka",
    "co": "muzaini",
    "company": "Al Muzaini",
    "area": "Fahaheel",
    "gov": "Ahmadi",
    "type": "branch",
    "lat": 29.082,
    "lng": 48.129,
    "address": "Block 7, Mekka St, Al Dabbous Bldg",
    "phone": "1888818",
    "hours": "8AM-10PM"
  },
  {
    "n": "Egaila Sama Mall",
    "co": "muzaini",
    "company": "Al Muzaini",
    "area": "Egaila",
    "gov": "Ahmadi",
    "type": "branch",
    "lat": 29.088,
    "lng": 48.098,
    "address": "Sama Al Egaila Mall, Opp LuLu Hyper",
    "phone": "1888818",
    "hours": "8AM-11PM"
  },
  {
    "n": "Al Fintas Blk3",
    "co": "muzaini",
    "company": "Al Muzaini",
    "area": "Fintas",
    "gov": "Ahmadi",
    "type": "branch",
    "lat": 29.172,
    "lng": 48.11,
    "address": "Block 3, St 9",
    "phone": "1888818",
    "hours": "8AM-9PM"
  },
  {
    "n": "Mangaf CoOp",
    "co": "muzaini",
    "company": "Al Muzaini",
    "area": "Mangaf",
    "gov": "Ahmadi",
    "type": "branch",
    "lat": 29.103,
    "lng": 48.127,
    "address": "Block 4, St 27, Inside Co-Operative",
    "phone": "1888818",
    "hours": "8AM-9PM"
  },
  {
    "n": "Mahboula Blk1 Allia",
    "co": "muzaini",
    "company": "Al Muzaini",
    "area": "Mahboula",
    "gov": "Ahmadi",
    "type": "branch",
    "lat": 29.148,
    "lng": 48.117,
    "address": "Block 1, St 117, Near Allia Hospital",
    "phone": "1888818",
    "hours": "8AM-10PM"
  },
  {
    "n": "Jahra Blk2",
    "co": "muzaini",
    "company": "Al Muzaini",
    "area": "Jahra",
    "gov": "Jahra",
    "type": "branch",
    "lat": 29.338,
    "lng": 47.685,
    "address": "Block 2, Bldg 002047, St 2",
    "phone": "1888818",
    "hours": "8AM-9:30PM"
  },
  {
    "n": "Jahra Industrial",
    "co": "muzaini",
    "company": "Al Muzaini",
    "area": "Jahra",
    "gov": "Jahra",
    "type": "branch",
    "lat": 29.32,
    "lng": 47.66,
    "address": "Industrial Area, Bldg 288, Opp Souq Sarhan",
    "phone": "1888818",
    "hours": "8AM-9:30PM"
  },
  {
    "n": "Sulaibiya Industrial",
    "co": "muzaini",
    "company": "Al Muzaini",
    "area": "Sulaibiya",
    "gov": "Jahra",
    "type": "branch",
    "lat": 29.295,
    "lng": 47.85,
    "address": "Sulibiya Industrial 2, Block 1",
    "phone": "1888818",
    "hours": "8AM-9PM"
  },
  {
    "n": "Jahra Blk4 Aaqul",
    "co": "muzaini",
    "company": "Al Muzaini",
    "area": "Jahra",
    "gov": "Jahra",
    "type": "branch",
    "lat": 29.345,
    "lng": 47.71,
    "address": "Block 4, Near Al Aaqul Complex",
    "phone": "1888818",
    "hours": "8:30AM-10PM"
  },
  {
    "n": "Jahra Blk3 Kazma",
    "co": "muzaini",
    "company": "Al Muzaini",
    "area": "Jahra",
    "gov": "Jahra",
    "type": "branch",
    "lat": 29.33,
    "lng": 47.678,
    "address": "Block 3, Marzouq Al Ataibi St, Kazma Complex",
    "phone": "1888818",
    "hours": "8AM-9:30PM"
  },
  {
    "n": "Jahra Blk4 Naser Mall",
    "co": "muzaini",
    "company": "Al Muzaini",
    "area": "Jahra",
    "gov": "Jahra",
    "type": "branch",
    "lat": 29.342,
    "lng": 47.705,
    "address": "Block 4, Al Naser Mall",
    "phone": "1888818",
    "hours": "8AM-9:30PM"
  },
  {
    "n": "Jahra Souq Naayem",
    "co": "muzaini",
    "company": "Al Muzaini",
    "area": "Jahra",
    "gov": "Jahra",
    "type": "branch",
    "lat": 29.335,
    "lng": 47.69,
    "address": "Souq Al Naayem, Block 2, Inside CoOp",
    "phone": "1888818",
    "hours": "8AM-9PM"
  },
  {
    "n": "Doha Blk5",
    "co": "muzaini",
    "company": "Al Muzaini",
    "area": "Doha",
    "gov": "Jahra",
    "type": "branch",
    "lat": 29.35,
    "lng": 47.98,
    "address": "Block 5, St Qusai Bin Kilab, Bldg 900004",
    "phone": "1888818",
    "hours": "8AM-9PM"
  },
  {
    "n": "Salwa Walk",
    "co": "muzaini",
    "company": "Al Muzaini",
    "area": "Salwa",
    "gov": "Mubarak",
    "type": "branch",
    "lat": 29.29,
    "lng": 48.06,
    "address": "Al Qurain, Block 4, Salwa Al Sabah Club",
    "phone": "1888818",
    "hours": "8AM-9PM"
  },
  {
    "n": "Sabah Salem Blk3",
    "co": "muzaini",
    "company": "Al Muzaini",
    "area": "Sabah Al Salem",
    "gov": "Mubarak",
    "type": "branch",
    "lat": 29.268,
    "lng": 48.035,
    "address": "Block 3, St 3 & 4, Bldg 135",
    "phone": "1888818",
    "hours": "8AM-9PM"
  },
  {
    "n": "Al Qurain W Fatira",
    "co": "muzaini",
    "company": "Al Muzaini",
    "area": "Al Qurain",
    "gov": "Mubarak",
    "type": "branch",
    "lat": 29.273,
    "lng": 48.048,
    "address": "West Abo Fatira, Block 1, St 5",
    "phone": "1888818",
    "hours": "8AM-9:30PM"
  },
  {
    "n": "Sabah Salem Blk1",
    "co": "muzaini",
    "company": "Al Muzaini",
    "area": "Sabah Al Salem",
    "gov": "Mubarak",
    "type": "branch",
    "lat": 29.27,
    "lng": 48.03,
    "address": "Block 1, St 101, Al Areen Complex",
    "phone": "1888818",
    "hours": "8AM-9:30PM"
  },
  {
    "n": "Sabhan Expat City",
    "co": "muzaini",
    "company": "Al Muzaini",
    "area": "Sabhan",
    "gov": "Mubarak",
    "type": "branch",
    "lat": 29.25,
    "lng": 47.98,
    "address": "The Expat City, Block 5, St 105",
    "phone": "1888818",
    "hours": "8AM-9PM"
  },
  {
    "n": "NW Sulaibikhat",
    "co": "muzaini",
    "company": "Al Muzaini",
    "area": "Sulaibikhat",
    "gov": "Asima",
    "type": "branch",
    "lat": 29.36,
    "lng": 47.945,
    "address": "NW Sulaibikhat CoOp, Block 2, St 202",
    "phone": "1888818",
    "hours": "8AM-9PM"
  },
  {
    "n": "Yarmouk Blk3",
    "co": "muzaini",
    "company": "Al Muzaini",
    "area": "Yarmouk",
    "gov": "Asima",
    "type": "branch",
    "lat": 29.342,
    "lng": 47.975,
    "address": "Block 3, St 3, Inside Mall",
    "phone": "1888818",
    "hours": "8AM-9:30PM"
  },
  {
    "n": "Daiya Blk4",
    "co": "muzaini",
    "company": "Al Muzaini",
    "area": "Daiya",
    "gov": "Asima",
    "type": "branch",
    "lat": 29.355,
    "lng": 47.985,
    "address": "Block 4, Rashed Bin Ahmed Al Roumi St",
    "phone": "1888818",
    "hours": "8AM-9PM"
  },
  {
    "n": "Rawda Blk2",
    "co": "muzaini",
    "company": "Al Muzaini",
    "area": "Rawda",
    "gov": "Asima",
    "type": "branch",
    "lat": 29.349,
    "lng": 47.992,
    "address": "Block 2, Ali Slaiman Abu Kuhail St",
    "phone": "1888818",
    "hours": "8AM-9PM"
  },
  {
    "n": "Kaifan Blk2",
    "co": "muzaini",
    "company": "Al Muzaini",
    "area": "Kaifan",
    "gov": "Asima",
    "type": "branch",
    "lat": 29.347,
    "lng": 47.97,
    "address": "Block 2, Ishbeliyah St, Inside CoOp",
    "phone": "1888818",
    "hours": "8AM-9:30PM"
  },
  {
    "n": "Mubarakiya2",
    "co": "muzaini",
    "company": "Al Muzaini",
    "area": "Mubarakiya",
    "gov": "Asima",
    "type": "branch",
    "lat": 29.374,
    "lng": 47.975,
    "address": "Al Qabla, Block 8, Ahmed Al Jaber St",
    "phone": "1888818",
    "hours": "8AM-9:30PM"
  },
  {
    "n": "Salhiya",
    "co": "muzaini",
    "company": "Al Muzaini",
    "area": "Salhiya",
    "gov": "Asima",
    "type": "branch",
    "lat": 29.364,
    "lng": 47.968,
    "address": "Block 3, Fahad Al Salem St, Opp United Complex",
    "phone": "1888818",
    "hours": "8AM-9:30PM"
  },
  {
    "n": "Sharq",
    "co": "muzaini",
    "company": "Al Muzaini",
    "area": "Sharq",
    "gov": "Asima",
    "type": "branch",
    "lat": 29.373,
    "lng": 47.983,
    "address": "Block 3, Al Shuhada St",
    "phone": "1888818",
    "hours": "10AM-10PM"
  },
  {
    "n": "Shuwaikh Panda",
    "co": "muzaini",
    "company": "Al Muzaini",
    "area": "Shuwaikh",
    "gov": "Asima",
    "type": "branch",
    "lat": 29.342,
    "lng": 47.958,
    "address": "Shuwaikh, Zina St, Panda Mall",
    "phone": "1888818",
    "hours": "8AM-9PM"
  },
  {
    "n": "Bnaid Al Gar",
    "co": "muzaini",
    "company": "Al Muzaini",
    "area": "Bnaid Al Gar",
    "gov": "Asima",
    "type": "branch",
    "lat": 29.366,
    "lng": 47.99,
    "address": "Block 1, Bor Saaed St, Near City Center",
    "phone": "1888818",
    "hours": "8AM-9PM"
  },
  {
    "n": "Mirqab Blk1",
    "co": "muzaini",
    "company": "Al Muzaini",
    "area": "Mirqab",
    "gov": "Asima",
    "type": "branch",
    "lat": 29.3677,
    "lng": 47.9765,
    "address": "Block 1, Abdulaziz Hamad Al Saqer St",
    "phone": "1888818",
    "hours": "8AM-9:30PM"
  },
  {
    "n": "Shuwaikh Industrial",
    "co": "muzaini",
    "company": "Al Muzaini",
    "area": "Shuwaikh",
    "gov": "Asima",
    "type": "branch",
    "lat": 29.335,
    "lng": 47.955,
    "address": "Shuwaikh Industrial, Block 1, St 16",
    "phone": "1888818",
    "hours": "8AM-9PM"
  },
  {
    "n": "Qibla",
    "co": "muzaini",
    "company": "Al Muzaini",
    "area": "Qibla",
    "gov": "Asima",
    "type": "branch",
    "lat": 29.362,
    "lng": 47.973,
    "address": "Block 4, Abu Baker Al Sadeeq St",
    "phone": "1888818",
    "hours": "8AM-9PM"
  },
  {
    "n": "Sulaibikhat Sama",
    "co": "muzaini",
    "company": "Al Muzaini",
    "area": "Sulaibikhat",
    "gov": "Asima",
    "type": "branch",
    "lat": 29.358,
    "lng": 47.94,
    "address": "Sama Sulaibikhat Mall, Ground Floor",
    "phone": "1888818",
    "hours": "8AM-10PM"
  },
  {
    "n": "Al Mubarakiya Main",
    "co": "muzaini",
    "company": "Al Muzaini",
    "area": "Mubarakiya",
    "gov": "Asima",
    "type": "branch",
    "lat": 29.376,
    "lng": 47.9732,
    "address": "Block 4, Saud Bin Abdul Aziz St, Muzaini Bldg",
    "phone": "1888818",
    "hours": "8AM-9PM"
  },
  {
    "n": "Mirqab Salah",
    "co": "muzaini",
    "company": "Al Muzaini",
    "area": "Mirqab",
    "gov": "Asima",
    "type": "branch",
    "lat": 29.369,
    "lng": 47.977,
    "address": "Mirqab, Salah Complex, Opp Mosque roundabout",
    "phone": "1888818",
    "hours": "8AM-9PM"
  },
  {
    "n": "Qurtoba",
    "co": "muzaini",
    "company": "Al Muzaini",
    "area": "Qurtoba",
    "gov": "Asima",
    "type": "branch",
    "lat": 29.33,
    "lng": 47.985,
    "address": "Block 2, St 4, Bldg 496, Al Mubader Center",
    "phone": "1888818",
    "hours": "8AM-9PM"
  },
  {
    "n": "Kiosk Abdullah Mubarak CoOp",
    "co": "muzaini",
    "company": "Al Muzaini",
    "area": "Abdullah Mubarak",
    "gov": "Farwaniya",
    "type": "kiosk",
    "lat": 29.27,
    "lng": 47.976,
    "address": "Abdullah Mubarak Co-operative",
    "phone": "1888818",
    "hours": "CoOp Hours"
  },
  {
    "n": "Kiosk Sabha Al Nasser CoOp",
    "co": "muzaini",
    "company": "Al Muzaini",
    "area": "Sabha Al Nasser",
    "gov": "Farwaniya",
    "type": "kiosk",
    "lat": 29.272,
    "lng": 47.986,
    "address": "Sabha Al Nasser Co-operative",
    "phone": "1888818",
    "hours": "CoOp Hours"
  },
  {
    "n": "Kiosk Andalus CoOp",
    "co": "muzaini",
    "company": "Al Muzaini",
    "area": "Andalus",
    "gov": "Farwaniya",
    "type": "kiosk",
    "lat": 29.266,
    "lng": 47.948,
    "address": "Andalus Co-operative",
    "phone": "1888818",
    "hours": "CoOp Hours"
  },
  {
    "n": "Kiosk Sulaibikhat Doha CoOp",
    "co": "muzaini",
    "company": "Al Muzaini",
    "area": "Sulaibikhat",
    "gov": "Asima",
    "type": "kiosk",
    "lat": 29.37,
    "lng": 47.944,
    "address": "Sulaibikhat & Doha Co-operative",
    "phone": "1888818",
    "hours": "CoOp Hours"
  },
  {
    "n": "Kiosk Ishbiliya CoOp",
    "co": "muzaini",
    "company": "Al Muzaini",
    "area": "Ishbiliya",
    "gov": "Farwaniya",
    "type": "kiosk",
    "lat": 29.275,
    "lng": 47.978,
    "address": "Ishbiliya Co-operative",
    "phone": "1888818",
    "hours": "CoOp Hours"
  },
  {
    "n": "Kiosk Bayan CoOp",
    "co": "muzaini",
    "company": "Al Muzaini",
    "area": "Bayan",
    "gov": "Hawally",
    "type": "kiosk",
    "lat": 29.302,
    "lng": 48.08,
    "address": "Bayan Co-operative",
    "phone": "1888818",
    "hours": "CoOp Hours"
  },
  {
    "n": "Kiosk Salmiya CoOp",
    "co": "muzaini",
    "company": "Al Muzaini",
    "area": "Salmiya",
    "gov": "Hawally",
    "type": "kiosk",
    "lat": 29.334,
    "lng": 48.068,
    "address": "Salmiya Co-operative",
    "phone": "1888818",
    "hours": "CoOp Hours"
  },
  {
    "n": "Kiosk Rawda CoOp",
    "co": "muzaini",
    "company": "Al Muzaini",
    "area": "Rawda",
    "gov": "Asima",
    "type": "kiosk",
    "lat": 29.349,
    "lng": 47.992,
    "address": "Rawda Co-operative",
    "phone": "1888818",
    "hours": "CoOp Hours"
  },
  {
    "n": "Kiosk Sabha Salem CoOp",
    "co": "muzaini",
    "company": "Al Muzaini",
    "area": "Sabah Al Salem",
    "gov": "Mubarak",
    "type": "kiosk",
    "lat": 29.268,
    "lng": 48.035,
    "address": "Sabha Al Salem Co-operative",
    "phone": "1888818",
    "hours": "CoOp Hours"
  },
  {
    "n": "Kiosk Al Adan CoOp",
    "co": "muzaini",
    "company": "Al Muzaini",
    "area": "Adan",
    "gov": "Mubarak",
    "type": "kiosk",
    "lat": 29.273,
    "lng": 48.065,
    "address": "Al Adan Co-operative",
    "phone": "1888818",
    "hours": "CoOp Hours"
  },
  {
    "n": "Kiosk Al Daher CoOp",
    "co": "muzaini",
    "company": "Al Muzaini",
    "area": "Daher",
    "gov": "Ahmadi",
    "type": "kiosk",
    "lat": 29.155,
    "lng": 48.115,
    "address": "Al Daher Co-operative",
    "phone": "1888818",
    "hours": "CoOp Hours"
  },
  {
    "n": "Kiosk Riqqa CoOp",
    "co": "muzaini",
    "company": "Al Muzaini",
    "area": "Riqqa",
    "gov": "Ahmadi",
    "type": "kiosk",
    "lat": 29.098,
    "lng": 48.134,
    "address": "Riqqa Co-operative Family Center",
    "phone": "1888818",
    "hours": "CoOp Hours"
  },
  {
    "n": "Kiosk Hadiya CoOp",
    "co": "muzaini",
    "company": "Al Muzaini",
    "area": "Hadiya",
    "gov": "Ahmadi",
    "type": "kiosk",
    "lat": 29.115,
    "lng": 48.14,
    "address": "Hadiya Co-operative",
    "phone": "1888818",
    "hours": "CoOp Hours"
  },
  {
    "n": "Kiosk Al Zahra CoOp",
    "co": "muzaini",
    "company": "Al Muzaini",
    "area": "Zahraa",
    "gov": "Hawally",
    "type": "kiosk",
    "lat": 29.297,
    "lng": 48.055,
    "address": "Al Zahra Co-operative",
    "phone": "1888818",
    "hours": "CoOp Hours"
  },
  {
    "n": "Kiosk Omariya CoOp",
    "co": "muzaini",
    "company": "Al Muzaini",
    "area": "Omariya",
    "gov": "Hawally",
    "type": "kiosk",
    "lat": 29.338,
    "lng": 48.004,
    "address": "Omariya Co-operative",
    "phone": "1888818",
    "hours": "CoOp Hours"
  },
  {
    "n": "Kiosk Yarmouk CoOp",
    "co": "muzaini",
    "company": "Al Muzaini",
    "area": "Yarmouk",
    "gov": "Asima",
    "type": "kiosk",
    "lat": 29.342,
    "lng": 47.975,
    "address": "Yarmouk Co-operative",
    "phone": "1888818",
    "hours": "CoOp Hours"
  },
  {
    "n": "Kiosk Faiha CoOp",
    "co": "muzaini",
    "company": "Al Muzaini",
    "area": "Faiha",
    "gov": "Asima",
    "type": "kiosk",
    "lat": 29.35,
    "lng": 47.988,
    "address": "Faiha Co-operative",
    "phone": "1888818",
    "hours": "CoOp Hours"
  },
  {
    "n": "Kiosk Shamiya CoOp",
    "co": "muzaini",
    "company": "Al Muzaini",
    "area": "Shamiya",
    "gov": "Asima",
    "type": "kiosk",
    "lat": 29.346,
    "lng": 47.97,
    "address": "Shamiya Co-operative",
    "phone": "1888818",
    "hours": "CoOp Hours"
  },
  {
    "n": "Kiosk Mansuriya CoOp",
    "co": "muzaini",
    "company": "Al Muzaini",
    "area": "Mansuriya",
    "gov": "Asima",
    "type": "kiosk",
    "lat": 29.343,
    "lng": 47.978,
    "address": "Mansuriya Co-operative",
    "phone": "1888818",
    "hours": "CoOp Hours"
  },
  {
    "n": "Kiosk Qadsiya CoOp",
    "co": "muzaini",
    "company": "Al Muzaini",
    "area": "Qadisiya",
    "gov": "Asima",
    "type": "kiosk",
    "lat": 29.341,
    "lng": 47.982,
    "address": "Qadisiya Co-operative",
    "phone": "1888818",
    "hours": "CoOp Hours"
  },
  {
    "n": "Kiosk Rumaithiya-1",
    "co": "muzaini",
    "company": "Al Muzaini",
    "area": "Rumaithiya",
    "gov": "Hawally",
    "type": "kiosk",
    "lat": 29.309,
    "lng": 48.092,
    "address": "Rumaithiya Co-operative 1",
    "phone": "1888818",
    "hours": "CoOp Hours"
  },
  {
    "n": "Kiosk Rumaithiya-2",
    "co": "muzaini",
    "company": "Al Muzaini",
    "area": "Rumaithiya",
    "gov": "Hawally",
    "type": "kiosk",
    "lat": 29.31,
    "lng": 48.09,
    "address": "Rumaithiya Co-operative 2",
    "phone": "1888818",
    "hours": "CoOp Hours"
  },
  {
    "n": "Kiosk Daiya CoOp",
    "co": "muzaini",
    "company": "Al Muzaini",
    "area": "Daiya",
    "gov": "Asima",
    "type": "kiosk",
    "lat": 29.355,
    "lng": 47.985,
    "address": "Daiya Co-operative",
    "phone": "1888818",
    "hours": "CoOp Hours"
  },
  {
    "n": "Kiosk Mishref CoOp",
    "co": "muzaini",
    "company": "Al Muzaini",
    "area": "Mishref",
    "gov": "Hawally",
    "type": "kiosk",
    "lat": 29.298,
    "lng": 48.068,
    "address": "Mishref Co-operative",
    "phone": "1888818",
    "hours": "CoOp Hours"
  },
  {
    "n": "Abdali2",
    "co": "ansari",
    "company": "Al Ansari",
    "area": "Abdali",
    "gov": "Jahra",
    "type": "branch",
    "lat": 29.39,
    "lng": 47.62,
    "address": "Abdali Area, Block 4, Kuwait Farmers Federation",
    "phone": "92296590",
    "hours": "8AM-9PM"
  },
  {
    "n": "Abdali",
    "co": "ansari",
    "company": "Al Ansari",
    "area": "Abdali",
    "gov": "Jahra",
    "type": "branch",
    "lat": 29.385,
    "lng": 47.615,
    "address": "Abdali Agricultural Cooperative Society",
    "phone": "92296586",
    "hours": "8AM-9PM"
  },
  {
    "n": "Al Forda",
    "co": "ansari",
    "company": "Al Ansari",
    "area": "Sulaibiya",
    "gov": "Jahra",
    "type": "branch",
    "lat": 29.254,
    "lng": 47.8437,
    "address": "Al Forda Mall, Fruits & Vegetables Market",
    "phone": "56501323",
    "hours": "8AM-6PM"
  },
  {
    "n": "Jahra2",
    "co": "ansari",
    "company": "Al Ansari",
    "area": "Jahra",
    "gov": "Jahra",
    "type": "branch",
    "lat": 29.338,
    "lng": 47.68,
    "address": "Al Naseem Complex, St Marzouq Al-Mutab",
    "phone": "92296580",
    "hours": "8AM-9PM"
  },
  {
    "n": "Jahra",
    "co": "ansari",
    "company": "Al Ansari",
    "area": "Jahra",
    "gov": "Jahra",
    "type": "branch",
    "lat": 29.345,
    "lng": 47.71,
    "address": "Block 4, Saad bin Madi Al-Mutawah St",
    "phone": "66305357",
    "hours": "8:30AM-9:30PM"
  },
  {
    "n": "Fahaheel2",
    "co": "ansari",
    "company": "Al Ansari",
    "area": "Fahaheel",
    "gov": "Ahmadi",
    "type": "branch",
    "lat": 29.082,
    "lng": 48.131,
    "address": "Inherited Hamoud Jassim Al-Dabbous, Makkah St",
    "phone": "92296574",
    "hours": "8AM-9PM"
  },
  {
    "n": "Fahaheel3",
    "co": "ansari",
    "company": "Al Ansari",
    "area": "Fahaheel",
    "gov": "Ahmadi",
    "type": "branch",
    "lat": 29.083,
    "lng": 48.132,
    "address": "Al Anoud Complex, Makkah St",
    "phone": "92296584",
    "hours": "8:30AM-9:30PM"
  },
  {
    "n": "Fahaheel",
    "co": "ansari",
    "company": "Al Ansari",
    "area": "Fahaheel",
    "gov": "Ahmadi",
    "type": "branch",
    "lat": 29.081,
    "lng": 48.129,
    "address": "Block 7, Plot 7302, Makka Street",
    "phone": "56501321",
    "hours": "8:30AM-9:30PM"
  },
  {
    "n": "Mahboula2",
    "co": "ansari",
    "company": "Al Ansari",
    "area": "Mahboula",
    "gov": "Ahmadi",
    "type": "branch",
    "lat": 29.148,
    "lng": 48.117,
    "address": "Veronica Patrick Mills Estate, St 226",
    "phone": "92296581",
    "hours": "8:30AM-9:30PM"
  },
  {
    "n": "Mahboula3",
    "co": "ansari",
    "company": "Al Ansari",
    "area": "Mahboula",
    "gov": "Ahmadi",
    "type": "branch",
    "lat": 29.15,
    "lng": 48.12,
    "address": "Ahmed Youssef Al-Thunayan, St 116",
    "phone": "92296591",
    "hours": "8:30AM-9:30PM"
  },
  {
    "n": "Mahboula5",
    "co": "ansari",
    "company": "Al Ansari",
    "area": "Mahboula",
    "gov": "Ahmadi",
    "type": "branch",
    "lat": 29.152,
    "lng": 48.119,
    "address": "Jadar Real Estate Company, St 136",
    "phone": "92296579",
    "hours": "9AM-10PM"
  },
  {
    "n": "Mahboula",
    "co": "ansari",
    "company": "Al Ansari",
    "area": "Mahboula",
    "gov": "Ahmadi",
    "type": "branch",
    "lat": 29.145,
    "lng": 48.12,
    "address": "Block 1, Plot 359A01, Adel Hussein Al Yousfy",
    "phone": "56501324",
    "hours": "8:30AM-9:30PM"
  },
  {
    "n": "Mangaf",
    "co": "ansari",
    "company": "Al Ansari",
    "area": "Mangaf",
    "gov": "Ahmadi",
    "type": "branch",
    "lat": 29.102,
    "lng": 48.125,
    "address": "Mohammed Saud Al-Lamie, St 14",
    "phone": "92296589",
    "hours": "8AM-9:30PM"
  },
  {
    "n": "A5 Mall",
    "co": "ansari",
    "company": "Al Ansari",
    "area": "Al Qurain",
    "gov": "Mubarak",
    "type": "branch",
    "lat": 29.275,
    "lng": 48.045,
    "address": "Al-Qurain Intl Real Estate, St 09",
    "phone": "92296606",
    "hours": "8AM-9PM"
  },
  {
    "n": "Bneid Al Gar",
    "co": "ansari",
    "company": "Al Ansari",
    "area": "Bneid Al Gar",
    "gov": "Asima",
    "type": "branch",
    "lat": 29.366,
    "lng": 47.99,
    "address": "Kuwait Finance House, St Al Sharif Al Radhi",
    "phone": "92296593",
    "hours": "8AM-9:30PM"
  },
  {
    "n": "Main Branch",
    "co": "ansari",
    "company": "Al Ansari",
    "area": "Qibla",
    "gov": "Asima",
    "type": "branch",
    "lat": 29.3709,
    "lng": 47.9783,
    "address": "Block 9, Abdullah Almubarak St, Al Enmaa Tower",
    "phone": "22400803",
    "hours": "8AM-9:30PM"
  },
  {
    "n": "Maliya",
    "co": "ansari",
    "company": "Al Ansari",
    "area": "Mirqab",
    "gov": "Asima",
    "type": "branch",
    "lat": 29.362,
    "lng": 47.968,
    "address": "Issa Al-Saleh, Fahad Al-Salem St",
    "phone": "92296576",
    "hours": "8AM-9PM"
  },
  {
    "n": "Maliya UTC",
    "co": "ansari",
    "company": "Al Ansari",
    "area": "Mirqab",
    "gov": "Asima",
    "type": "branch",
    "lat": 29.3617,
    "lng": 47.9649,
    "address": "Al Qibla Blk 13, St 23, UTC Commercial Bldg",
    "phone": "92296576",
    "hours": "8:30AM-9PM"
  },
  {
    "n": "Mirgab",
    "co": "ansari",
    "company": "Al Ansari",
    "area": "Mirqab",
    "gov": "Asima",
    "type": "branch",
    "lat": 29.368,
    "lng": 47.976,
    "address": "Essa Abdulla ALOthman, Abdul Aziz Hamad St",
    "phone": "92296573",
    "hours": "8AM-9PM"
  },
  {
    "n": "Shuwaikh",
    "co": "ansari",
    "company": "Al Ansari",
    "area": "Shuwaikh",
    "gov": "Asima",
    "type": "branch",
    "lat": 29.3298,
    "lng": 47.9448,
    "address": "Newark Real Estate Company, St 19",
    "phone": "92296588",
    "hours": "8AM-9PM"
  },
  {
    "n": "Farwaniya2",
    "co": "ansari",
    "company": "Al Ansari",
    "area": "Farwaniya",
    "gov": "Farwaniya",
    "type": "branch",
    "lat": 29.288,
    "lng": 47.956,
    "address": "Block 1, 87 St, Sulyman & Nawaf Al Hayfa",
    "phone": "66307090",
    "hours": "8:30AM-10:30PM"
  },
  {
    "n": "Farwaniya",
    "co": "ansari",
    "company": "Al Ansari",
    "area": "Farwaniya",
    "gov": "Farwaniya",
    "type": "branch",
    "lat": 29.2777,
    "lng": 47.9627,
    "address": "Block 3, Habeeb Menawer St",
    "phone": "56501328",
    "hours": "8:30AM-9:30PM"
  },
  {
    "n": "Jleeb2",
    "co": "ansari",
    "company": "Al Ansari",
    "area": "Jleeb",
    "gov": "Farwaniya",
    "type": "branch",
    "lat": 29.259,
    "lng": 47.932,
    "address": "Ayed Ayyad Al-Mutayri, St 3",
    "phone": "92296582",
    "hours": "8AM-9PM"
  },
  {
    "n": "Jleeb3",
    "co": "ansari",
    "company": "Al Ansari",
    "area": "Jleeb",
    "gov": "Farwaniya",
    "type": "branch",
    "lat": 29.26,
    "lng": 47.93,
    "address": "Lafi Khaled Al-Mutairi, Khaled Aqab St",
    "phone": "92296575",
    "hours": "8AM-9PM"
  },
  {
    "n": "Jleeb",
    "co": "ansari",
    "company": "Al Ansari",
    "area": "Jleeb",
    "gov": "Farwaniya",
    "type": "branch",
    "lat": 29.2558,
    "lng": 47.9373,
    "address": "Block 4, Plot 1572, Street 8",
    "phone": "56501327",
    "hours": "8:30AM-9:30PM"
  },
  {
    "n": "Khaitan2",
    "co": "ansari",
    "company": "Al Ansari",
    "area": "Khaitan",
    "gov": "Farwaniya",
    "type": "branch",
    "lat": 29.293,
    "lng": 47.976,
    "address": "Salman Al Dabbous Complex, Bin Zaheer St",
    "phone": "92296578",
    "hours": "8AM-9:30PM"
  },
  {
    "n": "Khaitan",
    "co": "ansari",
    "company": "Al Ansari",
    "area": "Khaitan",
    "gov": "Farwaniya",
    "type": "branch",
    "lat": 29.291,
    "lng": 47.977,
    "address": "Block 6, St 32, Al-Enmaa Real State",
    "phone": "66307080",
    "hours": "8:30AM-9:30PM"
  },
  {
    "n": "Maghateer",
    "co": "ansari",
    "company": "Al Ansari",
    "area": "Farwaniya",
    "gov": "Farwaniya",
    "type": "branch",
    "lat": 29.2796,
    "lng": 47.9617,
    "address": "Block 3, St 58, Maghateer Mall",
    "phone": "66305351",
    "hours": "8:30AM-9:30PM"
  },
  {
    "n": "Riggae2",
    "co": "ansari",
    "company": "Al Ansari",
    "area": "Riggae",
    "gov": "Farwaniya",
    "type": "branch",
    "lat": 29.306,
    "lng": 47.922,
    "address": "Block 2, St 21, Plot 1563",
    "phone": "60380226",
    "hours": "8:30AM-10:30PM"
  },
  {
    "n": "Riggae",
    "co": "ansari",
    "company": "Al Ansari",
    "area": "Riggae",
    "gov": "Farwaniya",
    "type": "branch",
    "lat": 29.305,
    "lng": 47.92,
    "address": "Rehab Al Khaleej Co, Sari Manawar St",
    "phone": "92296592",
    "hours": "8AM-9PM"
  },
  {
    "n": "Al Salaam Mall",
    "co": "ansari",
    "company": "Al Ansari",
    "area": "Salmiya",
    "gov": "Hawally",
    "type": "branch",
    "lat": 29.334,
    "lng": 48.072,
    "address": "Block 9, Salem Al-Mubarak St, Al Salam Mall",
    "phone": "60430993",
    "hours": "9AM-10PM"
  },
  {
    "n": "Hawally2",
    "co": "ansari",
    "company": "Al Ansari",
    "area": "Hawally",
    "gov": "Hawally",
    "type": "branch",
    "lat": 29.338,
    "lng": 48.015,
    "address": "Al-Buraq Centre, Ibn Khaldoun St",
    "phone": "92296596",
    "hours": "8AM-9:30PM"
  },
  {
    "n": "Hawally4",
    "co": "ansari",
    "company": "Al Ansari",
    "area": "Hawally",
    "gov": "Hawally",
    "type": "branch",
    "lat": 29.335,
    "lng": 48.013,
    "address": "Ahmed Yahya Muhammad Al-Ayoub, St Muhammad Ali",
    "phone": "92296587",
    "hours": "8AM-9:30PM"
  },
  {
    "n": "Hawally",
    "co": "ansari",
    "company": "Al Ansari",
    "area": "Hawally",
    "gov": "Hawally",
    "type": "branch",
    "lat": 29.3357,
    "lng": 48.0309,
    "address": "Block 7, Al Muthana Street",
    "phone": "22613585",
    "hours": "8AM-9PM"
  },
  {
    "n": "Salmiya2",
    "co": "ansari",
    "company": "Al Ansari",
    "area": "Salmiya",
    "gov": "Hawally",
    "type": "branch",
    "lat": 29.331,
    "lng": 48.058,
    "address": "Kuwait Intl Bank, Al-Mughira bin Shubah St",
    "phone": "92296577",
    "hours": "8AM-9PM"
  },
  {
    "n": "Salmiya3",
    "co": "ansari",
    "company": "Al Ansari",
    "area": "Salmiya",
    "gov": "Hawally",
    "type": "branch",
    "lat": 29.332,
    "lng": 48.06,
    "address": "Wafa Muhammad Abdulaziz Al-Barrak, Al-Qenaei",
    "phone": "92296585",
    "hours": "8:30AM-9:30PM"
  },
  {
    "n": "Salmiya",
    "co": "ansari",
    "company": "Al Ansari",
    "area": "Salmiya",
    "gov": "Hawally",
    "type": "branch",
    "lat": 29.3337,
    "lng": 48.0601,
    "address": "Block 9, Salem Al Mubarak St, Bldg Abdullah",
    "phone": "56501334",
    "hours": "9AM-10PM"
  },
  {
    "n": "Mirqab Ahmed Saleh",
    "co": "mulla",
    "company": "Al Mulla",
    "area": "Mirqab",
    "gov": "Asima",
    "type": "branch",
    "lat": 29.3696,
    "lng": 47.9785,
    "address": "Ahmed Saleh & Sons Bldg, Abdulaziz Hamad St",
    "phone": "1840123",
    "hours": "8AM-9PM"
  },
  {
    "n": "Watiya Fahd Salem",
    "co": "mulla",
    "company": "Al Mulla",
    "area": "Mirqab",
    "gov": "Asima",
    "type": "branch",
    "lat": 29.3617,
    "lng": 47.9649,
    "address": "Fahd Al Salem St, Burgan Bank Bldg",
    "phone": "1840123",
    "hours": "8:30AM-9PM"
  },
  {
    "n": "Mubarakiya",
    "co": "mulla",
    "company": "Al Mulla",
    "area": "Mubarakiya",
    "gov": "Asima",
    "type": "branch",
    "lat": 29.374,
    "lng": 47.975,
    "address": "Ahmad Al Jaber St, Mubarakiya",
    "phone": "1840123",
    "hours": "8AM-9PM"
  },
  {
    "n": "Souq Sharq",
    "co": "mulla",
    "company": "Al Mulla",
    "area": "Sharq",
    "gov": "Asima",
    "type": "branch",
    "lat": 29.373,
    "lng": 47.983,
    "address": "Arabian Gulf St, Souq Sharq Mall",
    "phone": "1840123",
    "hours": "10AM-10PM"
  },
  {
    "n": "Avenues",
    "co": "mulla",
    "company": "Al Mulla",
    "area": "Rai",
    "gov": "Farwaniya",
    "type": "branch",
    "lat": 29.3032,
    "lng": 47.9403,
    "address": "The Avenues Mall",
    "phone": "1840123",
    "hours": "10AM-10PM"
  },
  {
    "n": "Hawally Beirut St",
    "co": "mulla",
    "company": "Al Mulla",
    "area": "Hawally",
    "gov": "Hawally",
    "type": "branch",
    "lat": 29.3367,
    "lng": 48.0231,
    "address": "Beirut Street, Block 8, St 128",
    "phone": "1840123",
    "hours": "8:30AM-9PM"
  },
  {
    "n": "Hawally Commercial",
    "co": "mulla",
    "company": "Al Mulla",
    "area": "Hawally",
    "gov": "Hawally",
    "type": "branch",
    "lat": 29.3405,
    "lng": 48.0083,
    "address": "Ibn Khaldoun St, Al Mulla Commercial Complex",
    "phone": "1840123",
    "hours": "8:30AM-9PM"
  },
  {
    "n": "Salmiya Salem Blk4",
    "co": "mulla",
    "company": "Al Mulla",
    "area": "Salmiya",
    "gov": "Hawally",
    "type": "branch",
    "lat": 29.3365,
    "lng": 48.0644,
    "address": "Salem Al Mubarak St, Block 4",
    "phone": "1840123",
    "hours": "8:30AM-9PM"
  },
  {
    "n": "Salmiya Thaqeef",
    "co": "mulla",
    "company": "Al Mulla",
    "area": "Salmiya",
    "gov": "Hawally",
    "type": "branch",
    "lat": 29.3282,
    "lng": 48.0676,
    "address": "Thaqeef Street, Block 10, Bldg 22",
    "phone": "1840123",
    "hours": "8:30AM-9:30PM"
  },
  {
    "n": "Salmiya Amman",
    "co": "mulla",
    "company": "Al Mulla",
    "area": "Salmiya",
    "gov": "Hawally",
    "type": "branch",
    "lat": 29.3249,
    "lng": 48.0586,
    "address": "Amman St, Block 10, Bldg 06",
    "phone": "1840123",
    "hours": "8:30AM-9PM"
  },
  {
    "n": "Jabriya Blk3B",
    "co": "mulla",
    "company": "Al Mulla",
    "area": "Jabriya",
    "gov": "Hawally",
    "type": "branch",
    "lat": 29.317,
    "lng": 48.05,
    "address": "Block 3B, Al Mulla Commercial Complex",
    "phone": "1840123",
    "hours": "8:30AM-9PM"
  },
  {
    "n": "Farwaniya Maghateer",
    "co": "mulla",
    "company": "Al Mulla",
    "area": "Farwaniya",
    "gov": "Farwaniya",
    "type": "branch",
    "lat": 29.2796,
    "lng": 47.9617,
    "address": "Block 3, Habeeb Munawer St",
    "phone": "1840123",
    "hours": "8:30AM-9PM"
  },
  {
    "n": "Khaitan Awtad",
    "co": "mulla",
    "company": "Al Mulla",
    "area": "Khaitan",
    "gov": "Farwaniya",
    "type": "branch",
    "lat": 29.29,
    "lng": 47.975,
    "address": "Awtad Complex, Bin Zuhair St, Block 9",
    "phone": "1840123",
    "hours": "8:30AM-9PM"
  },
  {
    "n": "Fahaheel Mekka",
    "co": "mulla",
    "company": "Al Mulla",
    "area": "Fahaheel",
    "gov": "Ahmadi",
    "type": "branch",
    "lat": 29.082,
    "lng": 48.131,
    "address": "Block 7, Fahaheel Mekka Street",
    "phone": "1840123",
    "hours": "8:30AM-9PM"
  },
  {
    "n": "Mahboula Blk1",
    "co": "mulla",
    "company": "Al Mulla",
    "area": "Mahboula",
    "gov": "Ahmadi",
    "type": "branch",
    "lat": 29.145,
    "lng": 48.117,
    "address": "Mahboula Block 1",
    "phone": "1840123",
    "hours": "8:30AM-9PM"
  },
  {
    "n": "Mangaf Al Sayer",
    "co": "mulla",
    "company": "Al Mulla",
    "area": "Mangaf",
    "gov": "Ahmadi",
    "type": "branch",
    "lat": 29.104,
    "lng": 48.125,
    "address": "Al Sayer Commercial Complex, Block 4",
    "phone": "1840123",
    "hours": "8:30AM-9PM"
  },
  {
    "n": "Jahra Blk3",
    "co": "mulla",
    "company": "Al Mulla",
    "area": "Jahra",
    "gov": "Jahra",
    "type": "branch",
    "lat": 29.33,
    "lng": 47.678,
    "address": "Block 3, Daabal Al Khuzaei Street",
    "phone": "1840123",
    "hours": "8:30AM-9PM"
  },
  {
    "n": "Jahra Al Aaqol",
    "co": "mulla",
    "company": "Al Mulla",
    "area": "Jahra",
    "gov": "Jahra",
    "type": "branch",
    "lat": 29.345,
    "lng": 47.71,
    "address": "Block 4, Al Acool Building",
    "phone": "1840123",
    "hours": "8:30AM-9PM"
  },
  {
    "n": "Sabah Salem Blk3",
    "co": "mulla",
    "company": "Al Mulla",
    "area": "Sabah Al Salem",
    "gov": "Mubarak",
    "type": "branch",
    "lat": 29.268,
    "lng": 48.035,
    "address": "Sabah Al Salem, Block 3",
    "phone": "1840123",
    "hours": "8:30AM-9PM"
  },
  {
    "n": "Al Qurain CoOp",
    "co": "mulla",
    "company": "Al Mulla",
    "area": "Al Qurain",
    "gov": "Mubarak",
    "type": "branch",
    "lat": 29.275,
    "lng": 48.045,
    "address": "Al Qurain Co-Operative Society 4",
    "phone": "1840123",
    "hours": "8:30AM-9PM"
  },
  {
    "n": "Kiosk Messila",
    "co": "mulla",
    "company": "Al Mulla",
    "area": "Messila",
    "gov": "Mubarak",
    "type": "kiosk",
    "lat": 29.31,
    "lng": 48.082,
    "address": "Messila Co-operative",
    "phone": "1840123",
    "hours": "CoOp Hours"
  },
  {
    "n": "Kiosk Fnaitees",
    "co": "mulla",
    "company": "Al Mulla",
    "area": "Fnaitees",
    "gov": "Mubarak",
    "type": "kiosk",
    "lat": 29.19,
    "lng": 48.095,
    "address": "Fnaitees Co-operative",
    "phone": "1840123",
    "hours": "CoOp Hours"
  },
  {
    "n": "Kiosk Adan CoOp",
    "co": "mulla",
    "company": "Al Mulla",
    "area": "Adan",
    "gov": "Mubarak",
    "type": "kiosk",
    "lat": 29.273,
    "lng": 48.065,
    "address": "Al Adan Co-operative",
    "phone": "1840123",
    "hours": "CoOp Hours"
  },
  {
    "n": "Kiosk Sabah Salem",
    "co": "mulla",
    "company": "Al Mulla",
    "area": "Sabah Al Salem",
    "gov": "Mubarak",
    "type": "kiosk",
    "lat": 29.268,
    "lng": 48.038,
    "address": "Sabah Al Salem Co-operative",
    "phone": "1840123",
    "hours": "CoOp Hours"
  },
  {
    "n": "Kiosk Omariya",
    "co": "mulla",
    "company": "Al Mulla",
    "area": "Omariya",
    "gov": "Hawally",
    "type": "kiosk",
    "lat": 29.338,
    "lng": 48.004,
    "address": "Omariya Co-operative",
    "phone": "1840123",
    "hours": "CoOp Hours"
  },
  {
    "n": "Kiosk Siddeeq",
    "co": "mulla",
    "company": "Al Mulla",
    "area": "Siddeeq",
    "gov": "Hawally",
    "type": "kiosk",
    "lat": 29.321,
    "lng": 48.035,
    "address": "Siddeeq Co-operative",
    "phone": "1840123",
    "hours": "CoOp Hours"
  },
  {
    "n": "Kiosk Sultan Mishref",
    "co": "mulla",
    "company": "Al Mulla",
    "area": "Mishref",
    "gov": "Hawally",
    "type": "kiosk",
    "lat": 29.296,
    "lng": 48.075,
    "address": "Sultan Mishref Co-operative",
    "phone": "1840123",
    "hours": "CoOp Hours"
  },
  {
    "n": "Kiosk Zahra",
    "co": "mulla",
    "company": "Al Mulla",
    "area": "Zahraa",
    "gov": "Hawally",
    "type": "kiosk",
    "lat": 29.297,
    "lng": 48.055,
    "address": "Al Zahra Co-operative",
    "phone": "1840123",
    "hours": "CoOp Hours"
  },
  {
    "n": "Kiosk Sulaibikhat",
    "co": "mulla",
    "company": "Al Mulla",
    "area": "Sulaibikhat",
    "gov": "Asima",
    "type": "kiosk",
    "lat": 29.36,
    "lng": 47.943,
    "address": "Sulaibikhat Co-operative",
    "phone": "1840123",
    "hours": "CoOp Hours"
  },
  {
    "n": "Kiosk Granada",
    "co": "mulla",
    "company": "Al Mulla",
    "area": "Granada",
    "gov": "Asima",
    "type": "kiosk",
    "lat": 29.338,
    "lng": 47.962,
    "address": "Granada Co-operative",
    "phone": "1840123",
    "hours": "CoOp Hours"
  },
  {
    "n": "Kiosk Doha",
    "co": "mulla",
    "company": "Al Mulla",
    "area": "Doha",
    "gov": "Jahra",
    "type": "kiosk",
    "lat": 29.345,
    "lng": 47.97,
    "address": "Doha Co-operative",
    "phone": "1840123",
    "hours": "CoOp Hours"
  },
  {
    "n": "Kiosk Saad Abdullah",
    "co": "mulla",
    "company": "Al Mulla",
    "area": "Saad Al Abdullah",
    "gov": "Jahra",
    "type": "kiosk",
    "lat": 29.285,
    "lng": 47.73,
    "address": "Saad Al Abdullah Co-operative",
    "phone": "1840123",
    "hours": "CoOp Hours"
  },
  {
    "n": "Kiosk Jahra",
    "co": "mulla",
    "company": "Al Mulla",
    "area": "Jahra",
    "gov": "Jahra",
    "type": "kiosk",
    "lat": 29.34,
    "lng": 47.69,
    "address": "Jahra Co-operative",
    "phone": "1840123",
    "hours": "CoOp Hours"
  },
  {
    "n": "Kiosk Jaber Al Ahmad",
    "co": "mulla",
    "company": "Al Mulla",
    "area": "Jaber Al Ahmad",
    "gov": "Jahra",
    "type": "kiosk",
    "lat": 29.41,
    "lng": 47.64,
    "address": "Jaber Al Ahmad Co-operative",
    "phone": "1840123",
    "hours": "CoOp Hours"
  }
]